{
  "codigo": 200,
  "mensaje": "Ok",
  "resultado": [
    {
      "id": "P32864",
      "name": "CENTRO AVANZADO PHISIES S.L.",
      "address": "PEREZ HERVAS 2",
      "postalCode": "41003",
      "locality": "SEVILLA",
      "provinceCode": "41",
      "province": "SEVILLA",
      "telephoneNumber": "954211388",
      "country": "ES",
      "latitude": "37,3937972",
      "longitude": "-5,9811726",
      "providerType": 2,
      "schedule": "SSSSSNNN00:0000:00 SSSSSNNN00:0000:00",
      "specialityList": "92;98",
      "externalProviderCode": "",
      "nif": "B91742619",
      "email": "info@phisies.com",
      "collectiveList": "COL0013"
    },
    {
      "id": "P07405",
      "name": "CENTRO DE MEDICINA ORTOPEDICA Y REHABILITACION",
      "address": "AV. JUAN ANTONIO CAVESTANY 2 (LOCAL)",
      "postalCode": "41003",
      "locality": "SEVILLA",
      "provinceCode": "41",
      "province": "SEVILLA",
      "telephoneNumber": "954537172",
      "country": "ES",
      "latitude": "37,3881724",
      "longitude": "-5,981996",
      "providerType": 2,
      "schedule": "SSSSSNNN09:0014:00 NNNNNNNN00:0000:00",
      "specialityList": "37;92",
      "externalProviderCode": "",
      "nif": "B90084930",
      "email": "mi.garrido@cmor.es",
      "collectiveList": "COL0013"
    },
    {
      "id": "P26691",
      "name": "CENTRO MEDICO DE CHEQUEO HISPALIA S.L.",
      "address": "BARTOLOME DE MEDINA 6",
      "postalCode": "41004",
      "locality": "SEVILLA",
      "provinceCode": "41",
      "province": "SEVILLA",
      "telephoneNumber": "954663502",
      "country": "ES",
      "latitude": "37,3832456",
      "longitude": "-5,9858474",
      "providerType": 1,
      "schedule": "SSSSSNNN09:0014:00 SSSSSNNN17:0020:00",
      "specialityList": "01;03;04;05;29;30;32;40;82",
      "externalProviderCode": "6965",
      "nif": "B41117136",
      "email": "centromedicohispalia@gmail.com",
      "collectiveList": "COL0013"
    },
    {
      "id": "P35675",
      "name": "CENTRO MEDICO NUESTRA SEÑORA DE LA ESPERANZA",
      "address": "VIZCAYA 21",
      "postalCode": "41700",
      "locality": "DOS HERMANAS ",
      "provinceCode": "41",
      "province": "SEVILLA",
      "telephoneNumber": "955662120",
      "country": "ES",
      "latitude": "37,2864406",
      "longitude": "-5,9240958",
      "providerType": 1,
      "schedule": "NNNNNNNN00:0000:00 NNNNNNNN00:0000:00",
      "specialityList": "01;31;36;40;82",
      "externalProviderCode": "1104598",
      "nif": "B41775156",
      "email": "direccion@cemeesperanza.com",
      "collectiveList": "COL0013"
    },
    {
      "id": "P36752",
      "name": "CENTRO MEDICO OLISALUD, S.L.",
      "address": "MURES 6",
      "postalCode": "41804",
      "locality": "OLIVARES",
      "provinceCode": "41",
      "province": "SEVILLA",
      "telephoneNumber": "954112838",
      "country": "ES",
      "latitude": "37,4210104",
      "longitude": "-6,1488443",
      "providerType": 2,
      "schedule": "NNNNNNNN00:0000:00 NNNNNNNN00:0000:00",
      "specialityList": "01;104;16;24;32;36;37;40;82;92;96;98;99",
      "externalProviderCode": "1135754",
      "nif": "B41874686",
      "email": "OLISALUD@OLISALUD.COM",
      "collectiveList": "COL0013"
    },
    {
      "id": "P40348",
      "name": "CENTRO MEDICO QUIRONSALUD",
      "address": "MANUEL SIUROT 52",
      "postalCode": "41013",
      "locality": "SEVILLA",
      "provinceCode": "41",
      "province": "SEVILLA",
      "telephoneNumber": "954937693",
      "country": "ES",
      "latitude": "37,3602564",
      "longitude": "-5,9813574",
      "providerType": 1,
      "schedule": "NNNNNNNN00:0000:00 NNNNNNNN00:0000:00",
      "specialityList": "09;16;29;30;40;41;82",
      "externalProviderCode": "",
      "nif": "",
      "email": "callcenter.scs@quironsalud.es",
      "collectiveList": "COL0013"
    },
    {
      "id": "P40561",
      "name": "CENTRO MEDICO QUIRONSALUD",
      "address": "DE LAS CIENCIAS 39",
      "postalCode": "41020",
      "locality": "SEVILLA",
      "provinceCode": "41",
      "province": "SEVILLA",
      "telephoneNumber": "954937676",
      "country": "ES",
      "latitude": "37,4033101",
      "longitude": "-5,9274714",
      "providerType": 1,
      "schedule": "NNNNNNNN00:0000:00 NNNNNNNN00:0000:00",
      "specialityList": "16;27;40",
      "externalProviderCode": "",
      "nif": "",
      "email": "",
      "collectiveList": "COL0013"
    },
    {
      "id": "P40061",
      "name": "CENTRO MEDICO QUIRONSALUD ALJARAFE",
      "address": "DEL ALJARAFE, S/N",
      "postalCode": "41940",
      "locality": "TOMARES",
      "provinceCode": "41",
      "province": "SEVILLA",
      "telephoneNumber": "954937676",
      "country": "ES",
      "latitude": "37,3722185",
      "longitude": "-6,0520363",
      "providerType": 1,
      "schedule": "NNNNNNNN00:0000:00 NNNNNNNN00:0000:00",
      "specialityList": "05;08;16;31;35;38;40;41",
      "externalProviderCode": "",
      "nif": "",
      "email": "callcenter.scs@quironsalud.es",
      "collectiveList": "COL0013"
    },
    {
      "id": "P40330",
      "name": "CENTRO MEDICO QUIRONSALUD NERVION",
      "address": "MARQUES DEL NERVION 45-47",
      "postalCode": "41005",
      "locality": "SEVILLA",
      "provinceCode": "41",
      "province": "SEVILLA",
      "telephoneNumber": "954330100",
      "country": "ES",
      "latitude": "37,3827678",
      "longitude": "-5,9681612",
      "providerType": 1,
      "schedule": "NNNNNNNN00:0000:00 NNNNNNNN00:0000:00",
      "specialityList": "16;40",
      "externalProviderCode": "",
      "nif": "",
      "email": "CMNERVION.HIL@QUIRONSALUD.ES",
      "collectiveList": "COL0013"
    },
    {
      "id": "P40504",
      "name": "CENTRO RADIOLOGICO COMPUTARIZADO (CERCO)",
      "address": "DE CAPUCHINOS, 11",
      "postalCode": "41009",
      "locality": "SEVILLA",
      "provinceCode": "41",
      "province": "SEVILLA",
      "telephoneNumber": "954358201",
      "country": "ES",
      "latitude": "37,4005586",
      "longitude": "-5,9828859",
      "providerType": 1,
      "schedule": "SSSSSNNN08:0022:00 NNNNNNNN00:0000:00",
      "specialityList": "82",
      "externalProviderCode": "",
      "nif": "B41057209",
      "email": "VIVOCAPUCHINOS@VIVODIAGNOSTICO.COM",
      "collectiveList": "COL0013"
    },
    {
      "id": "P40577",
      "name": "CLINICA BAVIERA S.A.",
      "address": "PAGES DEL CORRO 125",
      "postalCode": "41010",
      "locality": "SEVILLA ",
      "provinceCode": "41",
      "province": "SEVILLA",
      "telephoneNumber": "954296744",
      "country": "ES",
      "latitude": "37,3821598",
      "longitude": "-6,0014496",
      "providerType": 1,
      "schedule": "SSSSSNNN09:0020:30 NNNNNNNN00:0000:00",
      "specialityList": "32",
      "externalProviderCode": "",
      "nif": "",
      "email": "",
      "collectiveList": "COL0013"
    },
    {
      "id": "P06749",
      "name": "CLINICA BAVIERA, S.A",
      "address": "DE LA PALMERA, 37",
      "postalCode": "41013",
      "locality": "SEVILLA",
      "provinceCode": "41",
      "province": "SEVILLA",
      "telephoneNumber": "900180100/ 954296744",
      "country": "ES",
      "latitude": "37,3580807",
      "longitude": "-5,980484",
      "providerType": 1,
      "schedule": "SSSSSNNN09:0020:30 NNNNNNNN00:0000:00",
      "specialityList": "302;32",
      "externalProviderCode": "",
      "nif": "",
      "email": "ATENCIONALPACIENTESEVILLA@CLINICABAVIERA.COM",
      "collectiveList": "COL0013"
    },
    {
      "id": "P37223",
      "name": "CLINICA BAVIERA, S.A",
      "address": "ENRAMADILLA, 3",
      "postalCode": "41003",
      "locality": "SEVILLA",
      "provinceCode": "41",
      "province": "SEVILLA",
      "telephoneNumber": "900180100/ 954296744",
      "country": "ES",
      "latitude": "37,3795196",
      "longitude": "-5,9812335",
      "providerType": 1,
      "schedule": "NNNNNNNN00:0000:00 NNNNNNNN00:0000:00",
      "specialityList": "32",
      "externalProviderCode": "",
      "nif": "",
      "email": "gsevilla@clinicabaviera.com",
      "collectiveList": "COL0013"
    },
    {
      "id": "P39912",
      "name": "CLINICA DEL PIE AYORA",
      "address": "AVENIDA DE KANSAS CITY 16",
      "postalCode": "41007",
      "locality": "SEVILLA",
      "provinceCode": "41",
      "province": "SEVILLA",
      "telephoneNumber": "644 80 48 54",
      "country": "ES",
      "latitude": "37,4034791",
      "longitude": "-5,9575585",
      "providerType": 2,
      "schedule": "SSSSSNNN09:0014:00 SSSSSNNN17:0020:00",
      "specialityList": "98",
      "externalProviderCode": "",
      "nif": "30270764G",
      "email": "clinicadelpieayora@gmail.com",
      "collectiveList": "COL0013"
    },
    {
      "id": "P39080",
      "name": "CLINICA ESPERANZA DE TRIANA S.A.",
      "address": "SAN JACINTO 87",
      "postalCode": "41010",
      "locality": "SEVILLA ",
      "provinceCode": "41",
      "province": "SEVILLA",
      "telephoneNumber": "954330100",
      "country": "ES",
      "latitude": "37,3812527",
      "longitude": "-6,0079223",
      "providerType": 3,
      "schedule": "NNNNNNNN00:0000:00 NNNNNNNN00:0000:00",
      "specialityList": "02;03;04;05;06;08;09;10;11;13;14;141;143;15;16;21;24;26;27;29;30;301;31;32;33;35;38;39;40;400;401;41;42;50;54;58;59;82;96",
      "externalProviderCode": "",
      "nif": "A41262718",
      "email": "CMVIRGENDELUJAN.HIL@QUIRONSALUD.ES",
      "collectiveList": "COL0013"
    },
    {
      "id": "P38939",
      "name": "CLINICA SANTA ISABEL GRUPO HLA S.A",
      "address": "C/ LUIS MONTOTO, 100",
      "postalCode": "41018",
      "locality": "SEVILLA",
      "provinceCode": "41",
      "province": "SEVILLA",
      "telephoneNumber": "954570004",
      "country": "ES",
      "latitude": "37,3869901",
      "longitude": "-5,9758943",
      "providerType": 3,
      "schedule": "SSSSSSSS00:0000:00 NNNNNNNN00:0000:00",
      "specialityList": "01;02;03;04;05;06;07;08;09;10;11;14;143;21;24;26;27;28;29;31;33;35;36;38;39;40;41;82;99",
      "externalProviderCode": "",
      "nif": "A90286139",
      "email": "",
      "collectiveList": "COL0013"
    },
    {
      "id": "P37872",
      "name": "CLINICAS GINEMED, S.L.P.",
      "address": "FARMACEUTICO MURILLO HERRERA 3",
      "postalCode": "41010",
      "locality": "SEVILLA ",
      "provinceCode": "41",
      "province": "SEVILLA",
      "telephoneNumber": "954991051",
      "country": "ES",
      "latitude": "37,3808439",
      "longitude": "-6,0012321",
      "providerType": 2,
      "schedule": "NNNNNNNN00:0000:00 NNNNNNNN00:0000:00",
      "specialityList": "170;31",
      "externalProviderCode": "",
      "nif": "B41850231",
      "email": "facturacion@ginemed.es",
      "collectiveList": "COL0013"
    },
    {
      "id": "P32804",
      "name": "CLINILAB PASTOR SL",
      "address": "SANTIPONCE 1",
      "postalCode": "41300",
      "locality": "SAN JOSE DE LA RINCONADA ",
      "provinceCode": "41",
      "province": "SEVILLA",
      "telephoneNumber": "954795809  -  954795794",
      "country": "ES",
      "latitude": "37,4821952",
      "longitude": "-5,9446437",
      "providerType": 1,
      "schedule": "NNNNNNNN00:0000:00 NNNNNNNN00:0000:00",
      "specialityList": "01;98",
      "externalProviderCode": "",
      "nif": "B91381020",
      "email": "INFO@CLINILABPASTOR.ES",
      "collectiveList": "COL0013"
    },
    {
      "id": "P39208",
      "name": "GAES",
      "address": "LUIS MONTOTO 83",
      "postalCode": "41018",
      "locality": "SEVILLA",
      "provinceCode": "41",
      "province": "SEVILLA",
      "telephoneNumber": "954576104",
      "country": "ES",
      "latitude": "37,3873462",
      "longitude": "-5,9752883",
      "providerType": 1,
      "schedule": " ",
      "specialityList": "210",
      "externalProviderCode": "",
      "nif": "49121",
      "email": "tienda020@amplifon.com",
      "collectiveList": "COL0013"
    },
    {
      "id": "P39256",
      "name": "GAES",
      "address": "VIRGEN DE LUJAN 30 BAJO",
      "postalCode": "41011",
      "locality": "SEVILLA",
      "provinceCode": "41",
      "province": "SEVILLA",
      "telephoneNumber": "954274674",
      "country": "ES",
      "latitude": "37,3747831",
      "longitude": "-6,0000966",
      "providerType": 1,
      "schedule": "NNNNNNNN00:0000:00 NNNNNNNN00:0000:00",
      "specialityList": "210",
      "externalProviderCode": "",
      "nif": "",
      "email": "tienda070@amplifon.com",
      "collectiveList": "COL0013"
    },
    {
      "id": "P39290",
      "name": "GAES",
      "address": "DEL ENMIGRANTE 10",
      "postalCode": "41703",
      "locality": "DOS HERMANAS",
      "provinceCode": "41",
      "province": "SEVILLA",
      "telephoneNumber": "955661464\r\n",
      "country": "ES",
      "latitude": "37,2821172",
      "longitude": "-5,9210099",
      "providerType": 1,
      "schedule": " ",
      "specialityList": "210",
      "externalProviderCode": "",
      "nif": "",
      "email": "tienda108@amplifon.com",
      "collectiveList": "COL0013"
    },
    {
      "id": "P39352",
      "name": "GAES",
      "address": "MAIRENA 17",
      "postalCode": "41500",
      "locality": "ALCALA DE GUADAIRA ",
      "provinceCode": "41",
      "province": "SEVILLA",
      "telephoneNumber": "954447900",
      "country": "ES",
      "latitude": "37,3388162",
      "longitude": "-5,8395254",
      "providerType": 1,
      "schedule": " ",
      "specialityList": "210",
      "externalProviderCode": "",
      "nif": "",
      "email": "tienda182@amplifon.com",
      "collectiveList": "COL0013"
    },
    {
      "id": "P39372",
      "name": "GAES",
      "address": "SAN ELOY 60",
      "postalCode": "41001",
      "locality": "SEVILLA",
      "provinceCode": "41",
      "province": "SEVILLA",
      "telephoneNumber": "954502139",
      "country": "ES",
      "latitude": "37,3910426",
      "longitude": "-5,998661",
      "providerType": 1,
      "schedule": "NNNNNNNN00:0000:00 NNNNNNNN00:0000:00",
      "specialityList": "210",
      "externalProviderCode": "",
      "nif": "",
      "email": "sevilla@gaes.es",
      "collectiveList": "COL0013"
    },
    {
      "id": "P39384",
      "name": "GAES",
      "address": "LUIS MONTOTO 102",
      "postalCode": "41018",
      "locality": "SEVILLA",
      "provinceCode": "41",
      "province": "SEVILLA",
      "telephoneNumber": "954980230",
      "country": "ES",
      "latitude": "37,386999",
      "longitude": "-5,9751006",
      "providerType": 1,
      "schedule": " ",
      "specialityList": "210",
      "externalProviderCode": "",
      "nif": "",
      "email": "luismontoto@gaes.es",
      "collectiveList": "COL0013"
    },
    {
      "id": "P39434",
      "name": "GAES",
      "address": "VIRGEN DE LUJAN 22",
      "postalCode": "41011",
      "locality": "SEVILLA",
      "provinceCode": "41",
      "province": "SEVILLA",
      "telephoneNumber": "954990704",
      "country": "ES",
      "latitude": "37,37489",
      "longitude": "-5,99863",
      "providerType": 1,
      "schedule": " ",
      "specialityList": "210",
      "externalProviderCode": "",
      "nif": "",
      "email": "sevilla4@gaes.es",
      "collectiveList": "COL0013"
    },
    {
      "id": "P39443",
      "name": "GAES",
      "address": "MAIRENA 16",
      "postalCode": "41500",
      "locality": "ALCALA DE GUADAIRA ",
      "provinceCode": "41",
      "province": "SEVILLA",
      "telephoneNumber": "955699063",
      "country": "ES",
      "latitude": "37,3406289",
      "longitude": "-5,8322652",
      "providerType": 1,
      "schedule": " ",
      "specialityList": "210",
      "externalProviderCode": "",
      "nif": "",
      "email": "alcala@gaes.es",
      "collectiveList": "COL0013"
    },
    {
      "id": "P39530",
      "name": "GAES",
      "address": "ANTONIA DIAZ 7",
      "postalCode": "41701",
      "locality": "DOS HERMANAS",
      "provinceCode": "41",
      "province": "SEVILLA",
      "telephoneNumber": "955675571",
      "country": "ES",
      "latitude": "37,2826713",
      "longitude": "-5,9243435",
      "providerType": 1,
      "schedule": " ",
      "specialityList": "210",
      "externalProviderCode": "",
      "nif": "",
      "email": "doshermanas@gaes.es",
      "collectiveList": "COL0013"
    },
    {
      "id": "P39549",
      "name": "GAES",
      "address": "CASTILLA 114",
      "postalCode": "41010",
      "locality": "SEVILLA ",
      "provinceCode": "41",
      "province": "SEVILLA",
      "telephoneNumber": "954347261",
      "country": "ES",
      "latitude": "37,3886869",
      "longitude": "-6,0075272",
      "providerType": 1,
      "schedule": " ",
      "specialityList": "210",
      "externalProviderCode": "",
      "nif": "",
      "email": "triana@gaes.es",
      "collectiveList": "COL0013"
    },
    {
      "id": "P39696",
      "name": "GAES",
      "address": "BAMI 9",
      "postalCode": "41013",
      "locality": "SEVILLA",
      "provinceCode": "41",
      "province": "SEVILLA",
      "telephoneNumber": "954627585",
      "country": "ES",
      "latitude": "37,3605381",
      "longitude": "-5,9789349",
      "providerType": 1,
      "schedule": " ",
      "specialityList": "210",
      "externalProviderCode": "",
      "nif": "",
      "email": "sevilla4@gaes.es",
      "collectiveList": "COL0013"
    },
    {
      "id": "P39825",
      "name": "GAES",
      "address": "PRIMERO DE MAYO 24",
      "postalCode": "41100",
      "locality": "CORIA DEL RIO",
      "provinceCode": "41",
      "province": "SEVILLA",
      "telephoneNumber": "954774940",
      "country": "ES",
      "latitude": "37,2875688",
      "longitude": "-6,0525416",
      "providerType": 1,
      "schedule": " ",
      "specialityList": "210",
      "externalProviderCode": "",
      "nif": "",
      "email": "fscoria@gaes.es",
      "collectiveList": "COL0013"
    },
    {
      "id": "P39829",
      "name": "GAES",
      "address": "PRIMERO DE MAYO 24",
      "postalCode": "41100",
      "locality": "CORIA DEL RIO",
      "provinceCode": "41",
      "province": "SEVILLA",
      "telephoneNumber": "954774940",
      "country": "ES",
      "latitude": "37,2875688",
      "longitude": "-6,0525416",
      "providerType": 1,
      "schedule": " ",
      "specialityList": "210",
      "externalProviderCode": "",
      "nif": "",
      "email": "fscoria@gaes.es",
      "collectiveList": "COL0013"
    },
    {
      "id": "P39852",
      "name": "GAES",
      "address": "PORTUGAL 27",
      "postalCode": "41300",
      "locality": "SAN JOSE DE LA RINCONADA ",
      "provinceCode": "41",
      "province": "SEVILLA",
      "telephoneNumber": "954792263",
      "country": "ES",
      "latitude": "37,4867592",
      "longitude": "-5,943613",
      "providerType": 1,
      "schedule": " ",
      "specialityList": "210",
      "externalProviderCode": "",
      "nif": "",
      "email": "sanjose@gaes.es",
      "collectiveList": "COL0013"
    },
    {
      "id": "P39862",
      "name": "GAES",
      "address": "JOAQUIN MORALES TORRES 15",
      "postalCode": "41003",
      "locality": "SEVILLA",
      "provinceCode": "41",
      "province": "SEVILLA",
      "telephoneNumber": "954534266",
      "country": "ES",
      "latitude": "37,394317",
      "longitude": "-5,9822429",
      "providerType": 1,
      "schedule": " ",
      "specialityList": "210",
      "externalProviderCode": "",
      "nif": "",
      "email": "sevilla7@gaes.es",
      "collectiveList": "COL0013"
    },
    {
      "id": "P39901",
      "name": "GAES",
      "address": "CIUDAD JARDIN 6",
      "postalCode": "41005",
      "locality": "SEVILLA",
      "provinceCode": "41",
      "province": "SEVILLA",
      "telephoneNumber": "954967090",
      "country": "ES",
      "latitude": "37,3786084",
      "longitude": "-5,9647387",
      "providerType": 1,
      "schedule": " ",
      "specialityList": "210",
      "externalProviderCode": "",
      "nif": "",
      "email": "sevilla8@gaes.es",
      "collectiveList": "COL0013"
    },
    {
      "id": "P40423",
      "name": "GENERAL OPTICA",
      "address": "DE LAS NACIONES 12",
      "postalCode": "41927",
      "locality": "MAIRENA DEL ALJARAFE",
      "provinceCode": "41",
      "province": "SEVILLA",
      "telephoneNumber": "955417966",
      "country": "ES",
      "latitude": "37,339731",
      "longitude": "-6,0626246",
      "providerType": 1,
      "schedule": "SSSSSSNN10:0014:00 SSSSSNNN17:0020:30",
      "specialityList": "151",
      "externalProviderCode": "",
      "nif": "",
      "email": "",
      "collectiveList": "COL0013"
    },
    {
      "id": "P40060",
      "name": "GENERAL OPTICA LOS REMEDIOS",
      "address": "ASUNCION 30",
      "postalCode": "41010",
      "locality": "SEVILLA ",
      "provinceCode": "41",
      "province": "SEVILLA",
      "telephoneNumber": "954278769 - 954278961",
      "country": "ES",
      "latitude": "37,3890924",
      "longitude": "-5,9844589",
      "providerType": 1,
      "schedule": "NNNNNNNN00:0000:00 NNNNNNNN00:0000:00",
      "specialityList": "151",
      "externalProviderCode": "",
      "nif": "",
      "email": "",
      "collectiveList": "COL0013"
    },
    {
      "id": "P32402",
      "name": "GENERAL OPTICAS DOS HERMANAS",
      "address": "PZA.DEL EMIGRANTE, 8-10 BAJOS",
      "postalCode": "41700",
      "locality": "DOS HERMANAS",
      "provinceCode": "41",
      "province": "SEVILLA",
      "telephoneNumber": "954725824",
      "country": "ES",
      "latitude": "37,2813256",
      "longitude": "-5,9213348",
      "providerType": 2,
      "schedule": "NNNNNNNN00:0000:00 NNNNNNNN00:0000:00",
      "specialityList": "151",
      "externalProviderCode": "",
      "nif": "",
      "email": "",
      "collectiveList": "COL0013"
    },
    {
      "id": "P32400",
      "name": "GENERAL OPTICAS IMAGEN",
      "address": "IMAGEN, 1",
      "postalCode": "41003",
      "locality": "SEVILLA",
      "provinceCode": "41",
      "province": "SEVILLA",
      "telephoneNumber": "954211477",
      "country": "ES",
      "latitude": "37,3942113",
      "longitude": "-5,9859016",
      "providerType": 2,
      "schedule": "NNNNNNNN00:0000:00 NNNNNNNN00:0000:00",
      "specialityList": "151",
      "externalProviderCode": "",
      "nif": "",
      "email": "",
      "collectiveList": "COL0013"
    },
    {
      "id": "P32401",
      "name": "GENERAL OPTICAS NERVIÓN",
      "address": "AVDA.EDUARDO DATO, 38",
      "postalCode": "41005",
      "locality": "SEVILLA",
      "provinceCode": "41",
      "province": "SEVILLA",
      "telephoneNumber": "954638936",
      "country": "ES",
      "latitude": "37,3818626",
      "longitude": "-5,9705019",
      "providerType": 2,
      "schedule": "NNNNNNNN00:0000:00 NNNNNNNN00:0000:00",
      "specialityList": "151",
      "externalProviderCode": "",
      "nif": "",
      "email": "",
      "collectiveList": "COL0013"
    },
    {
      "id": "P32172",
      "name": "GENERAL OPTICAS PLAZA CUBA",
      "address": "DE CUBA, 7",
      "postalCode": "41011",
      "locality": "SEVILLA",
      "provinceCode": "41",
      "province": "SEVILLA",
      "telephoneNumber": "954278769",
      "country": "ES",
      "latitude": "37,3796446",
      "longitude": "-5,9976778",
      "providerType": 2,
      "schedule": "SSSSSNNN10:0014:00 SSSSSNNN17:0020:00",
      "specialityList": "151",
      "externalProviderCode": "",
      "nif": "",
      "email": "",
      "collectiveList": "COL0013"
    },
    {
      "id": "P32399",
      "name": "GENERAL OPTICAS PLAZA NUEVA",
      "address": "PLAZA NUEVA, 14",
      "postalCode": "41001",
      "locality": "SEVILLA",
      "provinceCode": "41",
      "province": "SEVILLA",
      "telephoneNumber": "954218594",
      "country": "ES",
      "latitude": "37,3890688",
      "longitude": "-5,9950435",
      "providerType": 2,
      "schedule": "NNNNNNNN00:0000:00 NNNNNNNN00:0000:00",
      "specialityList": "151",
      "externalProviderCode": "",
      "nif": "",
      "email": "",
      "collectiveList": "COL0013"
    },
    {
      "id": "P39143",
      "name": "GENERAL OPTICAS SIERPES",
      "address": "SIERPES 53",
      "postalCode": "41004",
      "locality": "SEVILLA",
      "provinceCode": "41",
      "province": "SEVILLA",
      "telephoneNumber": "954218594-954218595",
      "country": "ES",
      "latitude": "37,3908109",
      "longitude": "-5,9944403",
      "providerType": 2,
      "schedule": "NNNNNNNN00:0000:00 NNNNNNNN00:0000:00",
      "specialityList": "151",
      "externalProviderCode": "",
      "nif": "",
      "email": "tda_sierpes@general-optica.es\r\n",
      "collectiveList": "COL0013"
    },
    {
      "id": "P40527",
      "name": "GRUPO HOSPITALARIO QUIRON",
      "address": "CONDES DE BUSTILLO 06 - 08",
      "postalCode": "41010",
      "locality": "SEVILLA ",
      "provinceCode": "41",
      "province": "SEVILLA",
      "telephoneNumber": "954330100",
      "country": "ES",
      "latitude": "37,3809238",
      "longitude": "-6,0085268",
      "providerType": 2,
      "schedule": "SSSSSNNN08:0022:00 NNNNNNNN00:0000:00",
      "specialityList": "40",
      "externalProviderCode": "",
      "nif": "",
      "email": "CMVIRGENDELUJAN.HIL@QUIRONSALUD.ES",
      "collectiveList": "COL0013"
    },
    {
      "id": "P39079",
      "name": "GRUPO HOSPITALARIO QUIRON,  S.A",
      "address": "RAFAEL SALGADO 3",
      "postalCode": "41013",
      "locality": "SEVILLA",
      "provinceCode": "41",
      "province": "SEVILLA",
      "telephoneNumber": "954937676",
      "country": "ES",
      "latitude": "37,3596367",
      "longitude": "-5,9800415",
      "providerType": 3,
      "schedule": "NNNNNNNN00:0000:00 NNNNNNNN00:0000:00",
      "specialityList": "02;03;04;05;06;08;09;10;11;13;14;141;143;15;16;21;24;26;27;30;301;31;32;33;35;38;39;40;400;401;41;42;50;500;54;58;59;82;96",
      "externalProviderCode": "",
      "nif": "B87324844",
      "email": "callcenter.scs@quironsalud.es",
      "collectiveList": "COL0013"
    },
    {
      "id": "P40506",
      "name": "GRUPO HOSPITALARIO QUIRON, S.A",
      "address": "DE LA REPUBLICA ARGENTINA 58 B",
      "postalCode": "41011",
      "locality": "SEVILLA",
      "provinceCode": "41",
      "province": "SEVILLA",
      "telephoneNumber": "954108128",
      "country": "ES",
      "latitude": "37,3764552",
      "longitude": "-6,0056105",
      "providerType": 3,
      "schedule": "NNNNNNNN00:0000:00 NNNNNNNN00:0000:00",
      "specialityList": "11;40",
      "externalProviderCode": "",
      "nif": "",
      "email": "CMVIRGENDELUJAN.HIL@QUIRONSALUD.ES",
      "collectiveList": "COL0013"
    },
    {
      "id": "P40361",
      "name": "HOSPITAL DE DIA QUIRONSALUD AVE MARIA",
      "address": "DE LA PALMERA 53",
      "postalCode": "41013",
      "locality": "SEVILLA",
      "provinceCode": "41",
      "province": "SEVILLA",
      "telephoneNumber": "900301013",
      "country": "ES",
      "latitude": "37,3580807",
      "longitude": "-5,980484",
      "providerType": 3,
      "schedule": "SSSSSNNN09:0022:00 NNNNNNNN00:0000:00",
      "specialityList": "11;16;21;35;41;96",
      "externalProviderCode": "",
      "nif": "",
      "email": "callcenter.scs@quironsalud.es",
      "collectiveList": "COL0013"
    },
    {
      "id": "P40649",
      "name": "IHP BELLAVISTA",
      "address": "DE JEREZ 46 EDF EXPOLOCAL",
      "postalCode": "41012",
      "locality": "SEVILLA",
      "provinceCode": "41",
      "province": "SEVILLA",
      "telephoneNumber": "954610022",
      "country": "ES",
      "latitude": "37,3335477",
      "longitude": "-5,9700523",
      "providerType": 1,
      "schedule": "NNNNNNNN00:0000:00 NNNNNNNN00:0000:00",
      "specialityList": "02",
      "externalProviderCode": "",
      "nif": "",
      "email": "evaperez@ihppediatria.com",
      "collectiveList": "COL0013"
    },
    {
      "id": "P36867",
      "name": "INSTITUTO ANDALUZ DE PEDIATRIA",
      "address": "DEL ALJARAFE ESQ. PROCURADORA ASENCION GARCIA 1RO.",
      "postalCode": "41940",
      "locality": "TOMARES",
      "provinceCode": "41",
      "province": "SEVILLA",
      "telephoneNumber": "954610022",
      "country": "ES",
      "latitude": "37,3722185",
      "longitude": "-6,0520363",
      "providerType": 2,
      "schedule": "NNNNNNNN00:0000:00 NNNNNNNN00:0000:00",
      "specialityList": "02",
      "externalProviderCode": "",
      "nif": "",
      "email": "",
      "collectiveList": "COL0013"
    },
    {
      "id": "P36868",
      "name": "INSTITUTO ANDALUZ DE PEDIATRIA",
      "address": "ESCULTOR MARTINEZ MONTAÑEZ ESQ ESCULTORALA ROLDANA",
      "postalCode": "41500",
      "locality": "ALCALA DE GUADAIRA ",
      "provinceCode": "41",
      "province": "SEVILLA",
      "telephoneNumber": "954610022",
      "country": "ES",
      "latitude": "37,3398601",
      "longitude": "-5,8287604",
      "providerType": 2,
      "schedule": "NNNNNNNN00:0000:00 NNNNNNNN00:0000:00",
      "specialityList": "02;03;27;32;35",
      "externalProviderCode": "",
      "nif": "",
      "email": "EVAPEREZ@IHPPEDIATRIA.COM",
      "collectiveList": "COL0013"
    },
    {
      "id": "P36921",
      "name": "INSTITUTO ANDALUZ DE PEDIATRIA",
      "address": "MATILDE CASANOVA S/N",
      "postalCode": "41980",
      "locality": "ALGABA",
      "provinceCode": "41",
      "province": "SEVILLA",
      "telephoneNumber": "954610022",
      "country": "ES",
      "latitude": "37,4635038",
      "longitude": "-6,0086806",
      "providerType": 2,
      "schedule": "NNNNNNNN00:0000:00 NNNNNNNN00:0000:00",
      "specialityList": "02",
      "externalProviderCode": "",
      "nif": "",
      "email": "EVAPEREZ@IHPPEDIATRIA.COM",
      "collectiveList": "COL0013"
    },
    {
      "id": "P36696",
      "name": "INSTITUTO HISPALENSE DE PEDIATRIA",
      "address": "JARDIN DE LA ISLA 6, ACCESO 1 EDIF. EXPOLOCAL",
      "postalCode": "41014",
      "locality": "SEVILLA",
      "provinceCode": "41",
      "province": "SEVILLA",
      "telephoneNumber": "954610022",
      "country": "ES",
      "latitude": "37,3338336",
      "longitude": "-5,9696877",
      "providerType": 1,
      "schedule": "NNNNNNNN00:0000:00 NNNNNNNN00:0000:00",
      "specialityList": "02;03;08;09;143;16;18;21;27;32;35;40",
      "externalProviderCode": "",
      "nif": "B41445867",
      "email": "EVAPEREZ@IHPPEDIATRIA.COM",
      "collectiveList": "COL0013"
    },
    {
      "id": "P36828",
      "name": "INSTITUTO HISPALENSE DE PEDIATRIA",
      "address": "MANUEL SIUROT 45",
      "postalCode": "41013",
      "locality": "SEVILLA",
      "provinceCode": "41",
      "province": "SEVILLA",
      "telephoneNumber": "954610022",
      "country": "ES",
      "latitude": "37,3596577",
      "longitude": "-5,9800356",
      "providerType": 2,
      "schedule": "NNNNNNNN00:0000:00 NNNNNNNN00:0000:00",
      "specialityList": "02;13;16;26;30;35;36;38;84",
      "externalProviderCode": "1114980",
      "nif": "B41445867",
      "email": "evaperez@ihppediatria.com",
      "collectiveList": "COL0013"
    },
    {
      "id": "P36866",
      "name": "INSTITUTO HISPALENSE DE PEDIATRIA",
      "address": "GUADALBULLON 2",
      "postalCode": "41013",
      "locality": "SEVILLA",
      "provinceCode": "41",
      "province": "SEVILLA",
      "telephoneNumber": "954610022",
      "country": "ES",
      "latitude": "37,3556122",
      "longitude": "-5,9787822",
      "providerType": 1,
      "schedule": "NNNNNNNN00:0000:00 NNNNNNNN00:0000:00",
      "specialityList": "03;08;153;18",
      "externalProviderCode": "",
      "nif": "",
      "email": "IHP3@IHPPEDIATRIA.COM",
      "collectiveList": "COL0013"
    },
    {
      "id": "P36920",
      "name": "INSTITUTO HISPALENSE DE PEDIATRIA",
      "address": "AV DE LAS CIENCIAS ESQ. AV. MEDICOS SIN FRONTERAS",
      "postalCode": "41020",
      "locality": "SEVILLA",
      "provinceCode": "41",
      "province": "SEVILLA",
      "telephoneNumber": "954610022",
      "country": "ES",
      "latitude": "37,3997571",
      "longitude": "-5,9251893",
      "providerType": 2,
      "schedule": "NNNNNNNN00:0000:00 NNNNNNNN00:0000:00",
      "specialityList": "02",
      "externalProviderCode": "",
      "nif": "",
      "email": "EVAPEREZ@IHPPEDIATRIA.COM",
      "collectiveList": "COL0013"
    },
    {
      "id": "P40539",
      "name": "INSTITUTO HISPALENSE DE PEDIATRIA",
      "address": "DE LAS CIENCIAS ESQ MEDICOS SIN FRONTERAS",
      "postalCode": "41020",
      "locality": "SEVILLA",
      "provinceCode": "41",
      "province": "SEVILLA",
      "telephoneNumber": "954610022",
      "country": "ES",
      "latitude": "37,4212157",
      "longitude": "-5,9251211",
      "providerType": 1,
      "schedule": "NNNNNNNN00:0000:00 NNNNNNNN00:0000:00",
      "specialityList": "35",
      "externalProviderCode": "",
      "nif": "",
      "email": "evaperez@ihppediatria.com",
      "collectiveList": "COL0013"
    },
    {
      "id": "P40109",
      "name": "LABORATORIO CONCEPCIÓN RUBIO",
      "address": "CALLE JESUS DEL GRAN PODER 19, PORTAL 3",
      "postalCode": "41002",
      "locality": "SEVILLA",
      "provinceCode": "41",
      "province": "SEVILLA",
      "telephoneNumber": "954907319",
      "country": "ES",
      "latitude": "37,3956366",
      "longitude": "-5,9960531",
      "providerType": 1,
      "schedule": "SSSSSNNN08:3013:00 SSSSNNNN14:0018:30",
      "specialityList": "04",
      "externalProviderCode": "",
      "nif": "",
      "email": "",
      "collectiveList": "COL0013"
    },
    {
      "id": "P39999",
      "name": "LABORATORIO DR. F. ECHEVARNE ANALISIS",
      "address": "LONETA, 1 - 3 (POLIGONO HYTASA)",
      "postalCode": "41006",
      "locality": "SEVILLA",
      "provinceCode": "41",
      "province": "SEVILLA",
      "telephoneNumber": "954638388",
      "country": "ES",
      "latitude": "37,3682239",
      "longitude": "-5,9635973",
      "providerType": 1,
      "schedule": "SSSSSNNN08:0019:00 NNNNNNNN00:0000:00",
      "specialityList": "04",
      "externalProviderCode": "",
      "nif": "",
      "email": "",
      "collectiveList": "COL0013"
    },
    {
      "id": "P39990",
      "name": "LABORATORIO ECHEVARNE, S.A",
      "address": "PALACIO VALDES 1",
      "postalCode": "41005",
      "locality": "SEVILLA",
      "provinceCode": "41",
      "province": "SEVILLA",
      "telephoneNumber": "900909110",
      "country": "ES",
      "latitude": "37,3822025",
      "longitude": "-5,9721683",
      "providerType": 1,
      "schedule": "SSSSSNNN08:0013:00 NNNNNNNN00:0000:00",
      "specialityList": "04",
      "externalProviderCode": "",
      "nif": "",
      "email": "",
      "collectiveList": "COL0013"
    },
    {
      "id": "P32867",
      "name": "LABORATORIO ECHEVARNE, S.A.",
      "address": "REPUBLICA DE ARGENTINA 7",
      "postalCode": "41011",
      "locality": "SEVILLA",
      "provinceCode": "41",
      "province": "SEVILLA",
      "telephoneNumber": "954284460",
      "country": "ES",
      "latitude": "37,3791152",
      "longitude": "-5,9990814",
      "providerType": 2,
      "schedule": "NNNNNNNN00:0000:00 NNNNNNNN00:0000:00",
      "specialityList": "04",
      "externalProviderCode": "",
      "nif": "",
      "email": "",
      "collectiveList": "COL0013"
    },
    {
      "id": "P36903",
      "name": "LABORATORIO ECHEVARNE, S.A.",
      "address": "LINARES",
      "postalCode": "41089",
      "locality": "MONTE QUINTO",
      "provinceCode": "41",
      "province": "SEVILLA",
      "telephoneNumber": "954123875",
      "country": "ES",
      "latitude": "37,3395414",
      "longitude": "-5,9341898",
      "providerType": 2,
      "schedule": "NNNNNNNN00:0000:00 NNNNNNNN00:0000:00",
      "specialityList": "04",
      "externalProviderCode": "",
      "nif": "",
      "email": "",
      "collectiveList": "COL0013"
    },
    {
      "id": "P36904",
      "name": "LABORATORIO ECHEVARNE, S.A.",
      "address": "MIGUEL DELIBES",
      "postalCode": "41300",
      "locality": "SAN JOSE DE LA RINCONADA ",
      "provinceCode": "41",
      "province": "SEVILLA",
      "telephoneNumber": "954284460",
      "country": "ES",
      "latitude": "37,4887508",
      "longitude": "-5,946251",
      "providerType": 2,
      "schedule": "NNNNNNNN00:0000:00 NNNNNNNN00:0000:00",
      "specialityList": "04",
      "externalProviderCode": "",
      "nif": "",
      "email": "",
      "collectiveList": "COL0013"
    },
    {
      "id": "P36905",
      "name": "LABORATORIO ECHEVARNE, S.A.",
      "address": "REPUBLICA ARGENTINA 7 LOCAL C",
      "postalCode": "41011",
      "locality": "SEVILLA",
      "provinceCode": "41",
      "province": "SEVILLA",
      "telephoneNumber": "954284460",
      "country": "ES",
      "latitude": "37,3791152",
      "longitude": "-5,9990814",
      "providerType": 2,
      "schedule": "NNNNNNNN00:0000:00 NNNNNNNN00:0000:00",
      "specialityList": "04",
      "externalProviderCode": "",
      "nif": "",
      "email": "",
      "collectiveList": "COL0013"
    },
    {
      "id": "P40216",
      "name": "MEGALAB",
      "address": "AVENIDA RAMON CARANDE, 17 LOCAL",
      "postalCode": "41003",
      "locality": "SEVILLA",
      "provinceCode": "41",
      "province": "SEVILLA",
      "telephoneNumber": "954239039",
      "country": "ES",
      "latitude": "37,3705654",
      "longitude": "-5,9778963",
      "providerType": 1,
      "schedule": "NNNNNNNN00:0000:00 NNNNNNNN00:0000:00",
      "specialityList": "04",
      "externalProviderCode": "",
      "nif": "",
      "email": "MICROSUR@MEGALAB.ES",
      "collectiveList": "COL0013"
    },
    {
      "id": "P40229",
      "name": "NEUROGAB",
      "address": "AVENIDA MANUEL SIUROT 52",
      "postalCode": "41013",
      "locality": "SEVILLA",
      "provinceCode": "41",
      "province": "SEVILLA",
      "telephoneNumber": "696717486",
      "country": "ES",
      "latitude": "37,3602564",
      "longitude": "-5,9813574",
      "providerType": 1,
      "schedule": "NNNNNNNN00:0000:00 NNNNNNNN00:0000:00",
      "specialityList": "29;30",
      "externalProviderCode": "",
      "nif": "",
      "email": "neurogab@gmail.com",
      "collectiveList": "COL0013"
    },
    {
      "id": "P40557",
      "name": "OFTALVIST HLA SEVILLA RAMON Y CAJAL",
      "address": "RAMON Y CAJAL 35",
      "postalCode": "41005",
      "locality": "SEVILLA",
      "provinceCode": "41",
      "province": "SEVILLA",
      "telephoneNumber": "955111611",
      "country": "ES",
      "latitude": "37,375843",
      "longitude": "-5,9694437",
      "providerType": 1,
      "schedule": "NNNNNNNN00:0000:00 NNNNNNNN00:0000:00",
      "specialityList": "32",
      "externalProviderCode": "",
      "nif": "",
      "email": "",
      "collectiveList": "COL0013"
    },
    {
      "id": "P35603",
      "name": "OFTALVIST SEVILLA",
      "address": "DE LA BUHAIRA 31",
      "postalCode": "41018",
      "locality": "SEVILLA",
      "provinceCode": "41",
      "province": "SEVILLA",
      "telephoneNumber": "954933930",
      "country": "ES",
      "latitude": "37,3807888",
      "longitude": "-5,9794556",
      "providerType": 2,
      "schedule": "NNNNNNNN00:0000:00 NNNNNNNN00:0000:00",
      "specialityList": "32",
      "externalProviderCode": "",
      "nif": "B53685806",
      "email": "SEVILLA@OFTALVIST.ES",
      "collectiveList": "COL0013"
    },
    {
      "id": "P40648",
      "name": "PATRICIA GRANADOS GOMEZ",
      "address": "DE IRLANDA 6",
      "postalCode": "41012",
      "locality": "SEVILLA",
      "provinceCode": "41",
      "province": "SEVILLA",
      "telephoneNumber": "624321328",
      "country": "ES",
      "latitude": "37,3428499",
      "longitude": "-5,9776293",
      "providerType": 2,
      "schedule": "NNNNNNNN00:0000:00 NNNNNNNN00:0000:00",
      "specialityList": "98",
      "externalProviderCode": "",
      "nif": "",
      "email": "patrii_2h@hotmail.com",
      "collectiveList": "COL0013"
    },
    {
      "id": "P40409",
      "name": "PHISIES SEVILLA ESTE",
      "address": "DE LA INNOVACION S/N EDF SIERRA ESTE L 27",
      "postalCode": "41020",
      "locality": "SEVILLA",
      "provinceCode": "41",
      "province": "SEVILLA",
      "telephoneNumber": "954997750",
      "country": "ES",
      "latitude": "37,3890924",
      "longitude": "-5,9844589",
      "providerType": 1,
      "schedule": "SSSSSNNN09:3013:30 SSSSNNNN16:0020:30",
      "specialityList": "92",
      "externalProviderCode": "",
      "nif": "",
      "email": "sevillaeste@phisies.com",
      "collectiveList": "COL0013"
    },
    {
      "id": "P31837",
      "name": "PSICO AS. CENTRO INTEGRAL DE PSICOLOGIA S.C.",
      "address": "VICENTE FLORES NAVARRO 14 LOCAL 2",
      "postalCode": "41010",
      "locality": "SEVILLA ",
      "provinceCode": "41",
      "province": "SEVILLA",
      "telephoneNumber": "954458613/635331012.",
      "country": "ES",
      "latitude": "37,382717",
      "longitude": "-6,007607",
      "providerType": 1,
      "schedule": "SSSSSNNN10:0021:00 NNNNNSNN10:0013:00",
      "specialityList": "153;99",
      "externalProviderCode": "",
      "nif": "J91536664",
      "email": "soledadcj@hotmail.com",
      "collectiveList": "COL0013"
    },
    {
      "id": "P31893",
      "name": "REMESAL MARTINEZ, INMACULADA",
      "address": "CALLE GALICIA 4, LOCAL",
      "postalCode": "41000",
      "locality": "SEVILLA",
      "provinceCode": "41",
      "province": "SEVILLA",
      "telephoneNumber": "615106913",
      "country": "ES",
      "latitude": "37,3694084",
      "longitude": "-5,9575356",
      "providerType": 2,
      "schedule": "SSSSSNNN10:0014:00 SSSSSNNN16:0021:00",
      "specialityList": "99",
      "externalProviderCode": "",
      "nif": "28618338J",
      "email": "",
      "collectiveList": "COL0013"
    },
    {
      "id": "P32165",
      "name": "RESONANCIA ABIERTA RECAREDO, S.L.",
      "address": "RECAREDO 46",
      "postalCode": "41003",
      "locality": "SEVILLA",
      "provinceCode": "41",
      "province": "SEVILLA",
      "telephoneNumber": "954987610",
      "country": "ES",
      "latitude": "37,3928226",
      "longitude": "-5,983921",
      "providerType": 1,
      "schedule": "SSSSSNNN08:0021:00 NNNNNNNN00:0000:00",
      "specialityList": "82",
      "externalProviderCode": "1098538",
      "nif": "B91624692",
      "email": "sevilla@cmdi.es",
      "collectiveList": "COL0013"
    },
    {
      "id": "P31948",
      "name": "ROMERO PARDILLOS, PILAR",
      "address": "SAN FRANCISCO JAVIER 22, EDIF HERMES PLANTA 1 CONS",
      "postalCode": "41018",
      "locality": "SEVILLA",
      "provinceCode": "41",
      "province": "SEVILLA",
      "telephoneNumber": "609756795",
      "country": "ES",
      "latitude": "37,3784031",
      "longitude": "-5,9751896",
      "providerType": 2,
      "schedule": "SSSSSNNN10:0014:00 SSSSSNNN17:0020:00",
      "specialityList": "99",
      "externalProviderCode": "",
      "nif": "77585369K",
      "email": "psico.pilar.romero@gmail.com",
      "collectiveList": "COL0013"
    },
    {
      "id": "P40080",
      "name": "SYNLAB DIAGNOSTICOS GLOBALES",
      "address": "VIRGEN DE LUJAN 30 A EDIFICIO LA PERGOLA BAJO 41",
      "postalCode": "41011",
      "locality": "SEVILLA",
      "provinceCode": "41",
      "province": "SEVILLA",
      "telephoneNumber": "955022407",
      "country": "ES",
      "latitude": "37,3748232",
      "longitude": "-6,0001725",
      "providerType": 1,
      "schedule": "NNNNNNNN00:0000:00 NNNNNNNN00:0000:00",
      "specialityList": "04",
      "externalProviderCode": "",
      "nif": "",
      "email": "",
      "collectiveList": "COL0013"
    },
    {
      "id": "P40465",
      "name": "SYNLAB DIAGNOSTICOS GLOBALES",
      "address": "JOSE LAGUILLO, 29 BAJO",
      "postalCode": "41003",
      "locality": "SEVILLA",
      "provinceCode": "41",
      "province": "SEVILLA",
      "telephoneNumber": "955095996",
      "country": "ES",
      "latitude": "37,3923258",
      "longitude": "-5,9789926",
      "providerType": 1,
      "schedule": "NNNNNNNN00:0000:00 NNNNNNNN00:0000:00",
      "specialityList": "04",
      "externalProviderCode": "",
      "nif": "",
      "email": "",
      "collectiveList": "COL0013"
    },
    {
      "id": "P26258",
      "name": "TIRADO PEREZ, ISABEL",
      "address": "MIRINALEDA, 35",
      "postalCode": "41016",
      "locality": "SEVILLA",
      "provinceCode": "41",
      "province": "SEVILLA",
      "telephoneNumber": "954408075",
      "country": "ES",
      "latitude": "37,3941873",
      "longitude": "-5,8802357",
      "providerType": 2,
      "schedule": "SSSSSNNN10:0013:00 SSSSSNNN17:0020:00",
      "specialityList": "98",
      "externalProviderCode": "",
      "nif": "",
      "email": "itipe72@gmail.com",
      "collectiveList": "COL0013"
    },
    {
      "id": "P34639",
      "name": "VERGARA CURADO, JUAN JOSE",
      "address": "ANTON DE ALAMINOS 12",
      "postalCode": "41007",
      "locality": "SEVILLA",
      "provinceCode": "41",
      "province": "SEVILLA",
      "telephoneNumber": "669304116",
      "country": "ES",
      "latitude": "37,3969103",
      "longitude": "-5,9501155",
      "providerType": 2,
      "schedule": "NNNNNNNN00:0000:00 NNNNNNNN00:0000:00",
      "specialityList": "98",
      "externalProviderCode": "896258",
      "nif": "28640124H",
      "email": "info@vergara-podologia.es",
      "collectiveList": "COL0013"
    },
    {
      "id": "P35836",
      "name": "VITALVIT S.L",
      "address": "ARJONA, Nº5",
      "postalCode": "41001",
      "locality": "SEVILLA",
      "provinceCode": "41",
      "province": "SEVILLA",
      "telephoneNumber": "954907698",
      "country": "ES",
      "latitude": "37,3896172",
      "longitude": "-5,9978005",
      "providerType": 2,
      "schedule": "NNNNNNNN00:0000:00 NNNNNNNN00:0000:00",
      "specialityList": "99",
      "externalProviderCode": "",
      "nif": "B91362640",
      "email": "recepcion.vitalvit@gmail.com",
      "collectiveList": "COL0013"
    }
  ]
}